[
  {
    "id": "FR:albi",
    "name": "Albi",
    "city": "Albi",
    "country": "FR",
    "stopIds": [
      "FRALM",
      "FRALB"
    ],
    "operators": [
      "TGVMAX"
    ],
    "lat": 43.933333,
    "lon": 2.15
  },
  {
    "id": "FR:avignon",
    "name": "Avignon",
    "city": "Avignon",
    "country": "FR",
    "stopIds": [
      "FRAVV",
      "FRAVI"
    ],
    "operators": [
      "TGVMAX"
    ],
    "lat": 43.95,
    "lon": 4.816667
  },
  {
    "id": "FR:lyon",
    "name": "Lyon",
    "city": "Lyon",
    "country": "FR",
    "stopIds": [
      "FRLVI",
      "FRSXA"
    ],
    "operators": [
      "TGVMAX"
    ],
    "lat": 45.767658,
    "lon": 4.834907
  },
  {
    "id": "FR:marseille",
    "name": "Marseille",
    "city": "Marseille",
    "country": "FR",
    "stopIds": [
      "FRMSC",
      "FRMBC"
    ],
    "operators": [
      "TGVMAX"
    ],
    "lat": 43.29641,
    "lon": 5.371
  },
  {
    "id": "FR:montpellier",
    "name": "Montpellier",
    "city": "Montpellier",
    "country": "FR",
    "stopIds": [
      "FRMSF",
      "FRMPL"
    ],
    "operators": [
      "TGVMAX"
    ],
    "lat": 43.599449,
    "lon": 3.896182
  },
  {
    "id": "FR:nimes",
    "name": "Nimes",
    "city": "Nimes",
    "country": "FR",
    "stopIds": [
      "FRNMS",
      "FRNIM"
    ],
    "operators": [
      "TGVMAX"
    ],
    "lat": 43.836678,
    "lon": 4.360022
  },
  {
    "id": "FR:aeroport-paris-roissy-charles-de-gaulle-cdg-t2",
    "name": "Aeroport Paris Roissy Charles de Gaulle Cdg T2",
    "city": "Aeroport Paris Roissy Charles de Gaulle Cdg T2",
    "country": "FR",
    "stopIds": [
      "FRRYT"
    ],
    "operators": [
      "TGVMAX"
    ],
    "lat": 49.003652,
    "lon": 2.570892
  },
  {
    "id": "FR:agde",
    "name": "Agde",
    "city": "Agde",
    "country": "FR",
    "stopIds": [
      "FRAGD"
    ],
    "operators": [
      "TGVMAX"
    ],
    "lat": 43.31728,
    "lon": 3.466203
  },
  {
    "id": "FR:agen",
    "name": "Agen",
    "city": "Agen",
    "country": "FR",
    "stopIds": [
      "FRAGN"
    ],
    "operators": [
      "TGVMAX"
    ],
    "lat": 44.208311,
    "lon": 0.620932
  },
  {
    "id": "FR:aime-la-plagne",
    "name": "Aime la Plagne",
    "city": "Aime la Plagne",
    "country": "FR",
    "stopIds": [
      "FRANJ"
    ],
    "operators": [
      "TGVMAX"
    ],
    "lat": 45.5544,
    "lon": 6.648646
  },
  {
    "id": "FR:aix-en-provence-tgv",
    "name": "Aix en Provence Tgv",
    "city": "Aix en Provence Tgv",
    "country": "FR",
    "stopIds": [
      "FRAXV"
    ],
    "operators": [
      "TGVMAX"
    ],
    "lat": 43.455237,
    "lon": 5.317534
  },
  {
    "id": "FR:aix-les-bains-le-revard",
    "name": "Aix les Bains le Revard",
    "city": "Aix les Bains le Revard",
    "country": "FR",
    "stopIds": [
      "FRAIX"
    ],
    "operators": [
      "TGVMAX"
    ],
    "lat": 45.688161,
    "lon": 5.909371
  },
  {
    "id": "FR:albertville",
    "name": "Albertville",
    "city": "Albertville",
    "country": "FR",
    "stopIds": [
      "FRALV"
    ],
    "operators": [
      "TGVMAX"
    ],
    "lat": 45.672977,
    "lon": 6.383167
  },
  {
    "id": "FR:amiens",
    "name": "Amiens",
    "city": "Amiens",
    "country": "FR",
    "stopIds": [
      "FRAMS"
    ],
    "operators": [
      "TGVMAX"
    ],
    "lat": 49.890746,
    "lon": 2.312592
  },
  {
    "id": "FR:ancenis",
    "name": "Ancenis",
    "city": "Ancenis",
    "country": "FR",
    "stopIds": [
      "FRANC"
    ],
    "operators": [
      "TGVMAX"
    ],
    "lat": 47.369334,
    "lon": -1.177763
  },
  {
    "id": "FR:angers",
    "name": "Angers",
    "city": "Angers",
    "country": "FR",
    "stopIds": [
      "FRASL"
    ],
    "operators": [
      "TGVMAX"
    ],
    "lat": 47.466667,
    "lon": -0.55
  },
  {
    "id": "FR:angouleme",
    "name": "Angouleme",
    "city": "Angouleme",
    "country": "FR",
    "stopIds": [
      "FRANG"
    ],
    "operators": [
      "TGVMAX"
    ],
    "lat": 45.653572,
    "lon": 0.164608
  },
  {
    "id": "FR:annecy",
    "name": "Annecy",
    "city": "Annecy",
    "country": "FR",
    "stopIds": [
      "FRANY"
    ],
    "operators": [
      "TGVMAX"
    ],
    "lat": 45.901965,
    "lon": 6.121835
  },
  {
    "id": "FR:annemasse",
    "name": "Annemasse",
    "city": "Annemasse",
    "country": "FR",
    "stopIds": [
      "FRANE"
    ],
    "operators": [
      "TGVMAX"
    ],
    "lat": 46.199222,
    "lon": 6.23652
  },
  {
    "id": "FR:antibes",
    "name": "Antibes",
    "city": "Antibes",
    "country": "FR",
    "stopIds": [
      "FRATB"
    ],
    "operators": [
      "TGVMAX"
    ],
    "lat": 43.585784,
    "lon": 7.119498
  },
  {
    "id": "FR:arcachon",
    "name": "Arcachon",
    "city": "Arcachon",
    "country": "FR",
    "stopIds": [
      "FRARC"
    ],
    "operators": [
      "TGVMAX"
    ],
    "lat": 44.659009,
    "lon": -1.16523
  },
  {
    "id": "FR:argeles-sur-mer",
    "name": "Argeles sur Mer",
    "city": "Argeles sur Mer",
    "country": "FR",
    "stopIds": [
      "FRAMR"
    ],
    "operators": [
      "TGVMAX"
    ],
    "lat": 42.54397,
    "lon": 3.022349
  },
  {
    "id": "FR:argenton-sur-creuse",
    "name": "Argenton sur Creuse",
    "city": "Argenton sur Creuse",
    "country": "FR",
    "stopIds": [
      "FRAGC"
    ],
    "operators": [
      "TGVMAX"
    ],
    "lat": 46.583333,
    "lon": 1.516667
  },
  {
    "id": "FR:arles",
    "name": "Arles",
    "city": "Arles",
    "country": "FR",
    "stopIds": [
      "FRARS"
    ],
    "operators": [
      "TGVMAX"
    ],
    "lat": 43.684853,
    "lon": 4.63203
  },
  {
    "id": "FR:arras",
    "name": "Arras",
    "city": "Arras",
    "country": "FR",
    "stopIds": [
      "FRARR"
    ],
    "operators": [
      "TGVMAX"
    ],
    "lat": 50.286673,
    "lon": 2.781942
  },
  {
    "id": "FR:arvant",
    "name": "Arvant",
    "city": "Arvant",
    "country": "FR",
    "stopIds": [
      "FRARV"
    ],
    "operators": [
      "TGVMAX"
    ],
    "lat": 45.36538,
    "lon": 3.310675
  },
  {
    "id": "FR:assier",
    "name": "Assier",
    "city": "Assier",
    "country": "FR",
    "stopIds": [
      "FRAER"
    ],
    "operators": [
      "TGVMAX"
    ],
    "lat": 44.666667,
    "lon": 1.883333
  },
  {
    "id": "FR:aubin",
    "name": "Aubin",
    "city": "Aubin",
    "country": "FR",
    "stopIds": [
      "FRAVB"
    ],
    "operators": [
      "TGVMAX"
    ],
    "lat": 44.527276,
    "lon": 2.239313
  },
  {
    "id": "FR:augsburg-hbf",
    "name": "Augsburg Hbf",
    "city": "Augsburg Hbf",
    "country": "FR",
    "stopIds": [
      "TGVMAX:augsburg_hbf"
    ],
    "operators": [
      "TGVMAX"
    ],
    "lat": 0,
    "lon": 0
  },
  {
    "id": "FR:aumont-aubrac",
    "name": "Aumont Aubrac",
    "city": "Aumont Aubrac",
    "country": "FR",
    "stopIds": [
      "FRAAU"
    ],
    "operators": [
      "TGVMAX"
    ],
    "lat": 44.71817,
    "lon": 3.283549
  },
  {
    "id": "FR:auray",
    "name": "Auray",
    "city": "Auray",
    "country": "FR",
    "stopIds": [
      "FRARY"
    ],
    "operators": [
      "TGVMAX"
    ],
    "lat": 47.68022,
    "lon": -2.999995
  },
  {
    "id": "FR:aurillac",
    "name": "Aurillac",
    "city": "Aurillac",
    "country": "FR",
    "stopIds": [
      "FRAUC"
    ],
    "operators": [
      "TGVMAX"
    ],
    "lat": 44.921092,
    "lon": 2.435655
  },
  {
    "id": "FR:baden-baden",
    "name": "Baden Baden",
    "city": "Baden Baden",
    "country": "FR",
    "stopIds": [
      "TGVMAX:baden_baden"
    ],
    "operators": [
      "TGVMAX"
    ],
    "lat": 0,
    "lon": 0
  },
  {
    "id": "FR:banassac-la-canourgue",
    "name": "Banassac la Canourgue",
    "city": "Banassac la Canourgue",
    "country": "FR",
    "stopIds": [
      "FRBAA"
    ],
    "operators": [
      "TGVMAX"
    ],
    "lat": 44.447763,
    "lon": 3.195852
  },
  {
    "id": "FR:banyuls-sur-mer",
    "name": "Banyuls sur Mer",
    "city": "Banyuls sur Mer",
    "country": "FR",
    "stopIds": [
      "FRBAN"
    ],
    "operators": [
      "TGVMAX"
    ],
    "lat": 42.482958,
    "lon": 3.12505
  },
  {
    "id": "FR:bar-le-duc",
    "name": "Bar le Duc",
    "city": "Bar le Duc",
    "country": "FR",
    "stopIds": [
      "FRBLD"
    ],
    "operators": [
      "TGVMAX"
    ],
    "lat": 48.773308,
    "lon": 5.166822
  },
  {
    "id": "FR:barcelona-sants",
    "name": "Barcelona Sants",
    "city": "Barcelona Sants",
    "country": "FR",
    "stopIds": [
      "TGVMAX:barcelona_sants"
    ],
    "operators": [
      "TGVMAX"
    ],
    "lat": 0,
    "lon": 0
  },
  {
    "id": "FR:basel-sbb",
    "name": "Basel Sbb",
    "city": "Basel Sbb",
    "country": "FR",
    "stopIds": [
      "TGVMAX:basel_sbb"
    ],
    "operators": [
      "TGVMAX"
    ],
    "lat": 0,
    "lon": 0
  },
  {
    "id": "FR:bayonne",
    "name": "Bayonne",
    "city": "Bayonne",
    "country": "FR",
    "stopIds": [
      "FRBYE"
    ],
    "operators": [
      "TGVMAX"
    ],
    "lat": 43.496801,
    "lon": -1.470306
  },
  {
    "id": "FR:beaune",
    "name": "Beaune",
    "city": "Beaune",
    "country": "FR",
    "stopIds": [
      "FRBEA"
    ],
    "operators": [
      "TGVMAX"
    ],
    "lat": 47.023053,
    "lon": 4.848379
  },
  {
    "id": "FR:bedarieux",
    "name": "Bedarieux",
    "city": "Bedarieux",
    "country": "FR",
    "stopIds": [
      "FRBED"
    ],
    "operators": [
      "TGVMAX"
    ],
    "lat": 43.608697,
    "lon": 3.149569
  },
  {
    "id": "FR:belfort-montbeliard",
    "name": "Belfort Montbeliard",
    "city": "Belfort Montbeliard",
    "country": "FR",
    "stopIds": [
      "FRBFB"
    ],
    "operators": [
      "TGVMAX"
    ],
    "lat": 47.585937,
    "lon": 6.897687
  },
  {
    "id": "FR:bellegarde-sur-valserine",
    "name": "Bellegarde sur Valserine",
    "city": "Bellegarde sur Valserine",
    "country": "FR",
    "stopIds": [
      "FRBGD"
    ],
    "operators": [
      "TGVMAX"
    ],
    "lat": 46.107874,
    "lon": 5.824213
  },
  {
    "id": "FR:berlin-gesundbrunnen",
    "name": "Berlin Gesundbrunnen",
    "city": "Berlin Gesundbrunnen",
    "country": "FR",
    "stopIds": [
      "TGVMAX:berlin_gesundbrunnen"
    ],
    "operators": [
      "TGVMAX"
    ],
    "lat": 0,
    "lon": 0
  },
  {
    "id": "FR:berlin-hbf",
    "name": "Berlin Hbf",
    "city": "Berlin Hbf",
    "country": "FR",
    "stopIds": [
      "TGVMAX:berlin_hbf"
    ],
    "operators": [
      "TGVMAX"
    ],
    "lat": 0,
    "lon": 0
  },
  {
    "id": "FR:berlin-sudkreuz",
    "name": "Berlin Sudkreuz",
    "city": "Berlin Sudkreuz",
    "country": "FR",
    "stopIds": [
      "TGVMAX:berlin_sudkreuz"
    ],
    "operators": [
      "TGVMAX"
    ],
    "lat": 0,
    "lon": 0
  },
  {
    "id": "FR:besancon-franche-comte",
    "name": "Besancon Franche Comte",
    "city": "Besancon Franche Comte",
    "country": "FR",
    "stopIds": [
      "FRBFC"
    ],
    "operators": [
      "TGVMAX"
    ],
    "lat": 47.307361,
    "lon": 5.953195
  },
  {
    "id": "FR:besancon-viotte",
    "name": "Besancon Viotte",
    "city": "Besancon Viotte",
    "country": "FR",
    "stopIds": [
      "FRBNV"
    ],
    "operators": [
      "TGVMAX"
    ],
    "lat": 47.247019,
    "lon": 6.022003
  },
  {
    "id": "FR:bethune",
    "name": "Bethune",
    "city": "Bethune",
    "country": "FR",
    "stopIds": [
      "FRBET"
    ],
    "operators": [
      "TGVMAX"
    ],
    "lat": 50.52144,
    "lon": 2.64055
  },
  {
    "id": "FR:beziers",
    "name": "Beziers",
    "city": "Beziers",
    "country": "FR",
    "stopIds": [
      "FRBZS"
    ],
    "operators": [
      "TGVMAX"
    ],
    "lat": 43.33633,
    "lon": 3.218873
  },
  {
    "id": "FR:biarritz",
    "name": "Biarritz",
    "city": "Biarritz",
    "country": "FR",
    "stopIds": [
      "FRBIZ"
    ],
    "operators": [
      "TGVMAX"
    ],
    "lat": 43.459397,
    "lon": -1.545915
  },
  {
    "id": "FR:biganos-facture",
    "name": "Biganos Facture",
    "city": "Biganos Facture",
    "country": "FR",
    "stopIds": [
      "TGVMAX:biganos_facture"
    ],
    "operators": [
      "TGVMAX"
    ],
    "lat": 0,
    "lon": 0
  },
  {
    "id": "FR:blois",
    "name": "Blois",
    "city": "Blois",
    "country": "FR",
    "stopIds": [
      "FRBLO"
    ],
    "operators": [
      "TGVMAX"
    ],
    "lat": 47.585445,
    "lon": 1.323823
  },
  {
    "id": "FR:bordeaux",
    "name": "Bordeaux",
    "city": "Bordeaux",
    "country": "FR",
    "stopIds": [
      "FRBXJ"
    ],
    "operators": [
      "TGVMAX"
    ],
    "lat": 44.837731,
    "lon": -0.577431
  },
  {
    "id": "FR:boulogne",
    "name": "Boulogne",
    "city": "Boulogne",
    "country": "FR",
    "stopIds": [
      "TGVMAX:boulogne_ville"
    ],
    "operators": [
      "TGVMAX"
    ],
    "lat": 50.7157,
    "lon": 1.60964
  },
  {
    "id": "FR:bourg-en-bresse",
    "name": "Bourg en Bresse",
    "city": "Bourg en Bresse",
    "country": "FR",
    "stopIds": [
      "FRBGB"
    ],
    "operators": [
      "TGVMAX"
    ],
    "lat": 46.200351,
    "lon": 5.215063
  },
  {
    "id": "FR:bourg-st-maurice",
    "name": "Bourg St Maurice",
    "city": "Bourg St Maurice",
    "country": "FR",
    "stopIds": [
      "FRBSM"
    ],
    "operators": [
      "TGVMAX"
    ],
    "lat": 45.619036,
    "lon": 6.771273
  },
  {
    "id": "FR:bourges",
    "name": "Bourges",
    "city": "Bourges",
    "country": "FR",
    "stopIds": [
      "FRBGS"
    ],
    "operators": [
      "TGVMAX"
    ],
    "lat": 47.094145,
    "lon": 2.394255
  },
  {
    "id": "FR:brassac-les-mines-ste-florine",
    "name": "Brassac les Mines Ste Florine",
    "city": "Brassac les Mines Ste Florine",
    "country": "FR",
    "stopIds": [
      "FRBLM"
    ],
    "operators": [
      "TGVMAX"
    ],
    "lat": 45.414246,
    "lon": 3.330167
  },
  {
    "id": "FR:brest",
    "name": "Brest",
    "city": "Brest",
    "country": "FR",
    "stopIds": [
      "FRBRT"
    ],
    "operators": [
      "TGVMAX"
    ],
    "lat": 48.38811,
    "lon": -4.478903
  },
  {
    "id": "FR:bretenoux-biars",
    "name": "Bretenoux Biars",
    "city": "Bretenoux Biars",
    "country": "FR",
    "stopIds": [
      "FRBXB"
    ],
    "operators": [
      "TGVMAX"
    ],
    "lat": 44.927369,
    "lon": 1.843687
  },
  {
    "id": "FR:briancon",
    "name": "Briancon",
    "city": "Briancon",
    "country": "FR",
    "stopIds": [
      "FRBRI"
    ],
    "operators": [
      "TGVMAX"
    ],
    "lat": 44.889853,
    "lon": 6.633007
  },
  {
    "id": "FR:brive",
    "name": "Brive",
    "city": "Brive",
    "country": "FR",
    "stopIds": [
      "FRBLG"
    ],
    "operators": [
      "TGVMAX"
    ],
    "lat": 45.152618,
    "lon": 1.528655
  },
  {
    "id": "FR:bruxelles-midi",
    "name": "Bruxelles Midi",
    "city": "Bruxelles Midi",
    "country": "FR",
    "stopIds": [
      "TGVMAX:bruxelles_midi"
    ],
    "operators": [
      "TGVMAX"
    ],
    "lat": 0,
    "lon": 0
  },
  {
    "id": "FR:cahors",
    "name": "Cahors",
    "city": "Cahors",
    "country": "FR",
    "stopIds": [
      "FRCAH"
    ],
    "operators": [
      "TGVMAX"
    ],
    "lat": 44.449275,
    "lon": 1.433325
  },
  {
    "id": "FR:calais",
    "name": "Calais",
    "city": "Calais",
    "country": "FR",
    "stopIds": [
      "FRCSV"
    ],
    "operators": [
      "TGVMAX"
    ],
    "lat": 50.953453,
    "lon": 1.850595
  },
  {
    "id": "FR:calais-frethun",
    "name": "Calais Frethun",
    "city": "Calais Frethun",
    "country": "FR",
    "stopIds": [
      "FRFHS"
    ],
    "operators": [
      "TGVMAX"
    ],
    "lat": 50.902585,
    "lon": 1.811286
  },
  {
    "id": "FR:campagnac-st-geniez",
    "name": "Campagnac St Geniez",
    "city": "Campagnac St Geniez",
    "country": "FR",
    "stopIds": [
      "FRCNT"
    ],
    "operators": [
      "TGVMAX"
    ],
    "lat": 44.421956,
    "lon": 3.066401
  },
  {
    "id": "FR:cannes",
    "name": "Cannes",
    "city": "Cannes",
    "country": "FR",
    "stopIds": [
      "FRCAN"
    ],
    "operators": [
      "TGVMAX"
    ],
    "lat": 43.55,
    "lon": 7.016667
  },
  {
    "id": "FR:capdenac",
    "name": "Capdenac",
    "city": "Capdenac",
    "country": "FR",
    "stopIds": [
      "FRCDC"
    ],
    "operators": [
      "TGVMAX"
    ],
    "lat": 44.578246,
    "lon": 2.077963
  },
  {
    "id": "FR:carcassonne",
    "name": "Carcassonne",
    "city": "Carcassonne",
    "country": "FR",
    "stopIds": [
      "FRCNE"
    ],
    "operators": [
      "TGVMAX"
    ],
    "lat": 43.218029,
    "lon": 2.351824
  },
  {
    "id": "FR:carmaux",
    "name": "Carmaux",
    "city": "Carmaux",
    "country": "FR",
    "stopIds": [
      "FRCMX"
    ],
    "operators": [
      "TGVMAX"
    ],
    "lat": 44.048782,
    "lon": 2.152401
  },
  {
    "id": "FR:caussade",
    "name": "Caussade",
    "city": "Caussade",
    "country": "FR",
    "stopIds": [
      "FRCSD"
    ],
    "operators": [
      "TGVMAX"
    ],
    "lat": 44.162267,
    "lon": 1.533654
  },
  {
    "id": "FR:ceilhes-roqueredonde",
    "name": "Ceilhes Roqueredonde",
    "city": "Ceilhes Roqueredonde",
    "country": "FR",
    "stopIds": [
      "FRCOQ"
    ],
    "operators": [
      "TGVMAX"
    ],
    "lat": 43.812266,
    "lon": 3.155158
  },
  {
    "id": "FR:cerbere",
    "name": "Cerbere",
    "city": "Cerbere",
    "country": "FR",
    "stopIds": [
      "FRCER"
    ],
    "operators": [
      "TGVMAX"
    ],
    "lat": 42.441773,
    "lon": 3.163403
  },
  {
    "id": "FR:chalon-sur-saone",
    "name": "Chalon sur Saone",
    "city": "Chalon sur Saone",
    "country": "FR",
    "stopIds": [
      "FRCSS"
    ],
    "operators": [
      "TGVMAX"
    ],
    "lat": 46.781612,
    "lon": 4.843454
  },
  {
    "id": "FR:chalons-en-champagne",
    "name": "Chalons en Champagne",
    "city": "Chalons en Champagne",
    "country": "FR",
    "stopIds": [
      "FRCMP"
    ],
    "operators": [
      "TGVMAX"
    ],
    "lat": 48.833333,
    "lon": 4.083333
  },
  {
    "id": "FR:chambery-challes-les-eaux",
    "name": "Chambery Challes les Eaux",
    "city": "Chambery Challes les Eaux",
    "country": "FR",
    "stopIds": [
      "FRCRL"
    ],
    "operators": [
      "TGVMAX"
    ],
    "lat": 45.571302,
    "lon": 5.919547
  },
  {
    "id": "FR:champagne-ardenne",
    "name": "Champagne Ardenne",
    "city": "Champagne Ardenne",
    "country": "FR",
    "stopIds": [
      "FRCGV"
    ],
    "operators": [
      "TGVMAX"
    ],
    "lat": 49.214806,
    "lon": 3.994632
  },
  {
    "id": "FR:charleville-mezieres",
    "name": "Charleville Mezieres",
    "city": "Charleville Mezieres",
    "country": "FR",
    "stopIds": [
      "FRCMZ"
    ],
    "operators": [
      "TGVMAX"
    ],
    "lat": 49.767915,
    "lon": 4.724952
  },
  {
    "id": "FR:chartres",
    "name": "Chartres",
    "city": "Chartres",
    "country": "FR",
    "stopIds": [
      "FRCHH"
    ],
    "operators": [
      "TGVMAX"
    ],
    "lat": 48.446853,
    "lon": 1.489248
  },
  {
    "id": "FR:chateauroux",
    "name": "Chateauroux",
    "city": "Chateauroux",
    "country": "FR",
    "stopIds": [
      "FRCTX"
    ],
    "operators": [
      "TGVMAX"
    ],
    "lat": 46.809737,
    "lon": 1.699536
  },
  {
    "id": "FR:chatellerault",
    "name": "Chatellerault",
    "city": "Chatellerault",
    "country": "FR",
    "stopIds": [
      "FRCRT"
    ],
    "operators": [
      "TGVMAX"
    ],
    "lat": 46.818594,
    "lon": 0.549279
  },
  {
    "id": "FR:chorges",
    "name": "Chorges",
    "city": "Chorges",
    "country": "FR",
    "stopIds": [
      "FRCHO"
    ],
    "operators": [
      "TGVMAX"
    ],
    "lat": 44.545842,
    "lon": 6.271889
  },
  {
    "id": "FR:clermont-ferrand",
    "name": "Clermont Ferrand",
    "city": "Clermont Ferrand",
    "country": "FR",
    "stopIds": [
      "FRCLF"
    ],
    "operators": [
      "TGVMAX"
    ],
    "lat": 45.778945,
    "lon": 3.100543
  },
  {
    "id": "FR:collioure",
    "name": "Collioure",
    "city": "Collioure",
    "country": "FR",
    "stopIds": [
      "FRCOX"
    ],
    "operators": [
      "TGVMAX"
    ],
    "lat": 42.526944,
    "lon": 3.078232
  },
  {
    "id": "FR:colmar",
    "name": "Colmar",
    "city": "Colmar",
    "country": "FR",
    "stopIds": [
      "FRCMR"
    ],
    "operators": [
      "TGVMAX"
    ],
    "lat": 48.073201,
    "lon": 7.346967
  },
  {
    "id": "FR:commercy",
    "name": "Commercy",
    "city": "Commercy",
    "country": "FR",
    "stopIds": [
      "FRCCY"
    ],
    "operators": [
      "TGVMAX"
    ],
    "lat": 48.765749,
    "lon": 5.58861
  },
  {
    "id": "FR:cransac",
    "name": "Cransac",
    "city": "Cransac",
    "country": "FR",
    "stopIds": [
      "FRCRZ"
    ],
    "operators": [
      "TGVMAX"
    ],
    "lat": 44.522951,
    "lon": 2.271867
  },
  {
    "id": "FR:crest",
    "name": "Crest",
    "city": "Crest",
    "country": "FR",
    "stopIds": [
      "FRCRE"
    ],
    "operators": [
      "TGVMAX"
    ],
    "lat": 44.730155,
    "lon": 5.016097
  },
  {
    "id": "FR:croix-wasquehal",
    "name": "Croix Wasquehal",
    "city": "Croix Wasquehal",
    "country": "FR",
    "stopIds": [
      "FRCRW"
    ],
    "operators": [
      "TGVMAX"
    ],
    "lat": 50.678557,
    "lon": 3.138032
  },
  {
    "id": "FR:culmont-chalindrey",
    "name": "Culmont Chalindrey",
    "city": "Culmont Chalindrey",
    "country": "FR",
    "stopIds": [
      "FRCYN"
    ],
    "operators": [
      "TGVMAX"
    ],
    "lat": 47.81009,
    "lon": 5.443222
  },
  {
    "id": "FR:dax",
    "name": "Dax",
    "city": "Dax",
    "country": "FR",
    "stopIds": [
      "FRDAX"
    ],
    "operators": [
      "TGVMAX"
    ],
    "lat": 43.720472,
    "lon": -1.050301
  },
  {
    "id": "FR:die",
    "name": "Die",
    "city": "Die",
    "country": "FR",
    "stopIds": [
      "FRDIE"
    ],
    "operators": [
      "TGVMAX"
    ],
    "lat": 44.758255,
    "lon": 5.363205
  },
  {
    "id": "FR:dijon",
    "name": "Dijon",
    "city": "Dijon",
    "country": "FR",
    "stopIds": [
      "FRDJV"
    ],
    "operators": [
      "TGVMAX"
    ],
    "lat": 47.323378,
    "lon": 5.027125
  },
  {
    "id": "FR:dol-de-bretagne",
    "name": "Dol de Bretagne",
    "city": "Dol de Bretagne",
    "country": "FR",
    "stopIds": [
      "FRDOL"
    ],
    "operators": [
      "TGVMAX"
    ],
    "lat": 48.54425,
    "lon": -1.750536
  },
  {
    "id": "FR:dole",
    "name": "Dole",
    "city": "Dole",
    "country": "FR",
    "stopIds": [
      "FRDLE"
    ],
    "operators": [
      "TGVMAX"
    ],
    "lat": 47.1,
    "lon": 5.5
  },
  {
    "id": "FR:douai",
    "name": "Douai",
    "city": "Douai",
    "country": "FR",
    "stopIds": [
      "FRDOI"
    ],
    "operators": [
      "TGVMAX"
    ],
    "lat": 50.371677,
    "lon": 3.089986
  },
  {
    "id": "FR:dunkerque",
    "name": "Dunkerque",
    "city": "Dunkerque",
    "country": "FR",
    "stopIds": [
      "FRDKQ"
    ],
    "operators": [
      "TGVMAX"
    ],
    "lat": 51.03047,
    "lon": 2.368961
  },
  {
    "id": "FR:elne",
    "name": "Elne",
    "city": "Elne",
    "country": "FR",
    "stopIds": [
      "FRELN"
    ],
    "operators": [
      "TGVMAX"
    ],
    "lat": 42.597114,
    "lon": 2.963585
  },
  {
    "id": "FR:embrun",
    "name": "Embrun",
    "city": "Embrun",
    "country": "FR",
    "stopIds": [
      "FREMB"
    ],
    "operators": [
      "TGVMAX"
    ],
    "lat": 44.567008,
    "lon": 6.496773
  },
  {
    "id": "FR:epinal",
    "name": "Epinal",
    "city": "Epinal",
    "country": "FR",
    "stopIds": [
      "FRELP"
    ],
    "operators": [
      "TGVMAX"
    ],
    "lat": 48.178005,
    "lon": 6.441787
  },
  {
    "id": "FR:erfurt-hbf",
    "name": "Erfurt Hbf",
    "city": "Erfurt Hbf",
    "country": "FR",
    "stopIds": [
      "TGVMAX:erfurt_hbf"
    ],
    "operators": [
      "TGVMAX"
    ],
    "lat": 0,
    "lon": 0
  },
  {
    "id": "FR:esslingen",
    "name": "Esslingen",
    "city": "Esslingen",
    "country": "FR",
    "stopIds": [
      "TGVMAX:esslingen_neckar"
    ],
    "operators": [
      "TGVMAX"
    ],
    "lat": 0,
    "lon": 0
  },
  {
    "id": "FR:etaples-le-touquet",
    "name": "Etaples le Touquet",
    "city": "Etaples le Touquet",
    "country": "FR",
    "stopIds": [
      "FRETA"
    ],
    "operators": [
      "TGVMAX"
    ],
    "lat": 50.51686,
    "lon": 1.64231
  },
  {
    "id": "FR:evian-les-bains",
    "name": "Evian les Bains",
    "city": "Evian les Bains",
    "country": "FR",
    "stopIds": [
      "FREVI"
    ],
    "operators": [
      "TGVMAX"
    ],
    "lat": 46.397915,
    "lon": 6.577457
  },
  {
    "id": "FR:figeac",
    "name": "Figeac",
    "city": "Figeac",
    "country": "FR",
    "stopIds": [
      "FRFIG"
    ],
    "operators": [
      "TGVMAX"
    ],
    "lat": 44.6,
    "lon": 2.033333
  },
  {
    "id": "FR:figueres-vilafant",
    "name": "Figueres Vilafant",
    "city": "Figueres Vilafant",
    "country": "FR",
    "stopIds": [
      "TGVMAX:figueres_vilafant"
    ],
    "operators": [
      "TGVMAX"
    ],
    "lat": 0,
    "lon": 0
  },
  {
    "id": "FR:forbach",
    "name": "Forbach",
    "city": "Forbach",
    "country": "FR",
    "stopIds": [
      "FRFOB"
    ],
    "operators": [
      "TGVMAX"
    ],
    "lat": 49.183333,
    "lon": 6.9
  },
  {
    "id": "FR:frankfurt-am-main-hbf",
    "name": "Frankfurt Am Main Hbf",
    "city": "Frankfurt Am Main Hbf",
    "country": "FR",
    "stopIds": [
      "TGVMAX:frankfurt_am_main_hbf"
    ],
    "operators": [
      "TGVMAX"
    ],
    "lat": 0,
    "lon": 0
  },
  {
    "id": "FR:frankfurt-main-sud",
    "name": "Frankfurt Main Sud",
    "city": "Frankfurt Main Sud",
    "country": "FR",
    "stopIds": [
      "TGVMAX:frankfurt_main_sud"
    ],
    "operators": [
      "TGVMAX"
    ],
    "lat": 0,
    "lon": 0
  },
  {
    "id": "FR:frasne",
    "name": "Frasne",
    "city": "Frasne",
    "country": "FR",
    "stopIds": [
      "FRFRA"
    ],
    "operators": [
      "TGVMAX"
    ],
    "lat": 46.857596,
    "lon": 6.157767
  },
  {
    "id": "FR:freiburg-breisgau-hbf",
    "name": "Freiburg Breisgau Hbf",
    "city": "Freiburg Breisgau Hbf",
    "country": "FR",
    "stopIds": [
      "TGVMAX:freiburg_breisgau_hbf"
    ],
    "operators": [
      "TGVMAX"
    ],
    "lat": 0,
    "lon": 0
  },
  {
    "id": "FR:fresnes-au-mont",
    "name": "Fresnes Au Mont",
    "city": "Fresnes Au Mont",
    "country": "FR",
    "stopIds": [
      "TGVMAX:fresnes_au_mont"
    ],
    "operators": [
      "TGVMAX"
    ],
    "lat": 0,
    "lon": 0
  },
  {
    "id": "FR:futuroscope",
    "name": "Futuroscope",
    "city": "Futuroscope",
    "country": "FR",
    "stopIds": [
      "FRFTU"
    ],
    "operators": [
      "TGVMAX"
    ],
    "lat": 46.669918,
    "lon": 0.377209
  },
  {
    "id": "FR:gap",
    "name": "Gap",
    "city": "Gap",
    "country": "FR",
    "stopIds": [
      "FRGAP"
    ],
    "operators": [
      "TGVMAX"
    ],
    "lat": 44.563693,
    "lon": 6.085638
  },
  {
    "id": "FR:geneve-cornavin",
    "name": "Geneve Cornavin",
    "city": "Geneve Cornavin",
    "country": "FR",
    "stopIds": [
      "TGVMAX:geneve_cornavin"
    ],
    "operators": [
      "TGVMAX"
    ],
    "lat": 0,
    "lon": 0
  },
  {
    "id": "FR:girona",
    "name": "Girona",
    "city": "Girona",
    "country": "FR",
    "stopIds": [
      "TGVMAX:girona"
    ],
    "operators": [
      "TGVMAX"
    ],
    "lat": 0,
    "lon": 0
  },
  {
    "id": "FR:gourdon",
    "name": "Gourdon",
    "city": "Gourdon",
    "country": "FR",
    "stopIds": [
      "FRGOV"
    ],
    "operators": [
      "TGVMAX"
    ],
    "lat": 44.741945,
    "lon": 1.389237
  },
  {
    "id": "FR:gramat",
    "name": "Gramat",
    "city": "Gramat",
    "country": "FR",
    "stopIds": [
      "FRGRT"
    ],
    "operators": [
      "TGVMAX"
    ],
    "lat": 44.773428,
    "lon": 1.722303
  },
  {
    "id": "FR:grenoble",
    "name": "Grenoble",
    "city": "Grenoble",
    "country": "FR",
    "stopIds": [
      "FRGRE"
    ],
    "operators": [
      "TGVMAX"
    ],
    "lat": 45.191493,
    "lon": 5.714584
  },
  {
    "id": "FR:guingamp",
    "name": "Guingamp",
    "city": "Guingamp",
    "country": "FR",
    "stopIds": [
      "FRGGP"
    ],
    "operators": [
      "TGVMAX"
    ],
    "lat": 48.555659,
    "lon": -3.143343
  },
  {
    "id": "FR:halle-saale-hbf",
    "name": "Halle Saale Hbf",
    "city": "Halle Saale Hbf",
    "country": "FR",
    "stopIds": [
      "TGVMAX:halle_saale_hbf"
    ],
    "operators": [
      "TGVMAX"
    ],
    "lat": 0,
    "lon": 0
  },
  {
    "id": "FR:hazebrouck",
    "name": "Hazebrouck",
    "city": "Hazebrouck",
    "country": "FR",
    "stopIds": [
      "FRHZK"
    ],
    "operators": [
      "TGVMAX"
    ],
    "lat": 50.72501,
    "lon": 2.54129
  },
  {
    "id": "FR:hendaye",
    "name": "Hendaye",
    "city": "Hendaye",
    "country": "FR",
    "stopIds": [
      "FRHED"
    ],
    "operators": [
      "TGVMAX"
    ],
    "lat": 43.353132,
    "lon": -1.781724
  },
  {
    "id": "FR:hyeres",
    "name": "Hyeres",
    "city": "Hyeres",
    "country": "FR",
    "stopIds": [
      "FRHYE"
    ],
    "operators": [
      "TGVMAX"
    ],
    "lat": 43.108867,
    "lon": 6.124223
  },
  {
    "id": "FR:issoire",
    "name": "Issoire",
    "city": "Issoire",
    "country": "FR",
    "stopIds": [
      "FRISS"
    ],
    "operators": [
      "TGVMAX"
    ],
    "lat": 45.543884,
    "lon": 3.25398
  },
  {
    "id": "FR:issoudun",
    "name": "Issoudun",
    "city": "Issoudun",
    "country": "FR",
    "stopIds": [
      "FRISK"
    ],
    "operators": [
      "TGVMAX"
    ],
    "lat": 46.948763,
    "lon": 1.985834
  },
  {
    "id": "FR:jonzac",
    "name": "Jonzac",
    "city": "Jonzac",
    "country": "FR",
    "stopIds": [
      "FRJOH"
    ],
    "operators": [
      "TGVMAX"
    ],
    "lat": 45.438746,
    "lon": -0.44164
  },
  {
    "id": "FR:juvisy",
    "name": "Juvisy",
    "city": "Juvisy",
    "country": "FR",
    "stopIds": [
      "FRJYS"
    ],
    "operators": [
      "TGVMAX"
    ],
    "lat": 48.68917,
    "lon": 2.38267
  },
  {
    "id": "FR:kaiserslautern-hbf",
    "name": "Kaiserslautern Hbf",
    "city": "Kaiserslautern Hbf",
    "country": "FR",
    "stopIds": [
      "TGVMAX:kaiserslautern_hbf"
    ],
    "operators": [
      "TGVMAX"
    ],
    "lat": 0,
    "lon": 0
  },
  {
    "id": "FR:karlsruhe-hbf",
    "name": "Karlsruhe Hbf",
    "city": "Karlsruhe Hbf",
    "country": "FR",
    "stopIds": [
      "TGVMAX:karlsruhe_hbf"
    ],
    "operators": [
      "TGVMAX"
    ],
    "lat": 0,
    "lon": 0
  },
  {
    "id": "FR:l-argentiere-les-ecrins",
    "name": "L Argentiere les Ecrins",
    "city": "L Argentiere les Ecrins",
    "country": "FR",
    "stopIds": [
      "FRLEE"
    ],
    "operators": [
      "TGVMAX"
    ],
    "lat": 44.79098,
    "lon": 6.556416
  },
  {
    "id": "FR:la-baule-escoublac",
    "name": "La Baule Escoublac",
    "city": "La Baule Escoublac",
    "country": "FR",
    "stopIds": [
      "FRLBE"
    ],
    "operators": [
      "TGVMAX"
    ],
    "lat": 47.28869,
    "lon": -2.389102
  },
  {
    "id": "FR:la-roche-sur-yon",
    "name": "La Roche sur Yon",
    "city": "La Roche sur Yon",
    "country": "FR",
    "stopIds": [
      "FRLRY"
    ],
    "operators": [
      "TGVMAX"
    ],
    "lat": 46.67212,
    "lon": -1.435621
  },
  {
    "id": "FR:la-rochelle-ville",
    "name": "La Rochelle Ville",
    "city": "La Rochelle Ville",
    "country": "FR",
    "stopIds": [
      "FRLRE"
    ],
    "operators": [
      "TGVMAX"
    ],
    "lat": 46.15269,
    "lon": -1.145305
  },
  {
    "id": "FR:la-souterraine",
    "name": "La Souterraine",
    "city": "La Souterraine",
    "country": "FR",
    "stopIds": [
      "FRLST"
    ],
    "operators": [
      "TGVMAX"
    ],
    "lat": 46.239792,
    "lon": 1.492151
  },
  {
    "id": "FR:la-teste",
    "name": "La Teste",
    "city": "La Teste",
    "country": "FR",
    "stopIds": [
      "FRTTE"
    ],
    "operators": [
      "TGVMAX"
    ],
    "lat": 44.636924,
    "lon": -1.14295
  },
  {
    "id": "FR:lahr-schwarzw",
    "name": "Lahr Schwarzw",
    "city": "Lahr Schwarzw",
    "country": "FR",
    "stopIds": [
      "TGVMAX:lahr_schwarzw"
    ],
    "operators": [
      "TGVMAX"
    ],
    "lat": 0,
    "lon": 0
  },
  {
    "id": "FR:lamballe",
    "name": "Lamballe",
    "city": "Lamballe",
    "country": "FR",
    "stopIds": [
      "FRLAM"
    ],
    "operators": [
      "TGVMAX"
    ],
    "lat": 48.46606,
    "lon": -2.511546
  },
  {
    "id": "FR:landerneau",
    "name": "Landerneau",
    "city": "Landerneau",
    "country": "FR",
    "stopIds": [
      "FRLDO"
    ],
    "operators": [
      "TGVMAX"
    ],
    "lat": 48.453572,
    "lon": -4.256528
  },
  {
    "id": "FR:landry",
    "name": "Landry",
    "city": "Landry",
    "country": "FR",
    "stopIds": [
      "FRLAY"
    ],
    "operators": [
      "TGVMAX"
    ],
    "lat": 45.574171,
    "lon": 6.733818
  },
  {
    "id": "FR:lannemezan",
    "name": "Lannemezan",
    "city": "Lannemezan",
    "country": "FR",
    "stopIds": [
      "FRLNZ"
    ],
    "operators": [
      "TGVMAX"
    ],
    "lat": 43.114273,
    "lon": 0.387367
  },
  {
    "id": "FR:lannion",
    "name": "Lannion",
    "city": "Lannion",
    "country": "FR",
    "stopIds": [
      "FRLNI"
    ],
    "operators": [
      "TGVMAX"
    ],
    "lat": 48.727638,
    "lon": -3.460353
  },
  {
    "id": "FR:laroquebrou",
    "name": "Laroquebrou",
    "city": "Laroquebrou",
    "country": "FR",
    "stopIds": [
      "FRLQB"
    ],
    "operators": [
      "TGVMAX"
    ],
    "lat": 44.964166,
    "lon": 2.192917
  },
  {
    "id": "FR:lausanne",
    "name": "Lausanne",
    "city": "Lausanne",
    "country": "FR",
    "stopIds": [
      "TGVMAX:lausanne"
    ],
    "operators": [
      "TGVMAX"
    ],
    "lat": 0,
    "lon": 0
  },
  {
    "id": "FR:laval",
    "name": "Laval",
    "city": "Laval",
    "country": "FR",
    "stopIds": [
      "FRLAL"
    ],
    "operators": [
      "TGVMAX"
    ],
    "lat": 48.076206,
    "lon": -0.760907
  },
  {
    "id": "FR:le-bousquet-d-orb",
    "name": "Le Bousquet D Orb",
    "city": "Le Bousquet D Orb",
    "country": "FR",
    "stopIds": [
      "FRLBD"
    ],
    "operators": [
      "TGVMAX"
    ],
    "lat": 43.69121,
    "lon": 3.168938
  },
  {
    "id": "FR:le-creusot",
    "name": "Le Creusot",
    "city": "Le Creusot",
    "country": "FR",
    "stopIds": [
      "FRLCR"
    ],
    "operators": [
      "TGVMAX"
    ],
    "lat": 46.807815,
    "lon": 4.43044
  },
  {
    "id": "FR:le-croisic",
    "name": "Le Croisic",
    "city": "Le Croisic",
    "country": "FR",
    "stopIds": [
      "FRLCC"
    ],
    "operators": [
      "TGVMAX"
    ],
    "lat": 47.289836,
    "lon": -2.507442
  },
  {
    "id": "FR:le-havre",
    "name": "Le Havre",
    "city": "Le Havre",
    "country": "FR",
    "stopIds": [
      "FRLHA"
    ],
    "operators": [
      "TGVMAX"
    ],
    "lat": 49.492996,
    "lon": 0.125677
  },
  {
    "id": "FR:le-mans",
    "name": "Le Mans",
    "city": "Le Mans",
    "country": "FR",
    "stopIds": [
      "FRLEN"
    ],
    "operators": [
      "TGVMAX"
    ],
    "lat": 47.995034,
    "lon": 0.19014
  },
  {
    "id": "FR:le-monastier",
    "name": "Le Monastier",
    "city": "Le Monastier",
    "country": "FR",
    "stopIds": [
      "FRLMR"
    ],
    "operators": [
      "TGVMAX"
    ],
    "lat": 44.508968,
    "lon": 3.252057
  },
  {
    "id": "FR:le-pouliguen",
    "name": "Le Pouliguen",
    "city": "Le Pouliguen",
    "country": "FR",
    "stopIds": [
      "FRLIG"
    ],
    "operators": [
      "TGVMAX"
    ],
    "lat": 47.28254,
    "lon": -2.433145
  },
  {
    "id": "FR:lens",
    "name": "Lens",
    "city": "Lens",
    "country": "FR",
    "stopIds": [
      "FRLNS"
    ],
    "operators": [
      "TGVMAX"
    ],
    "lat": 50.426818,
    "lon": 2.828254
  },
  {
    "id": "FR:lerouville",
    "name": "Lerouville",
    "city": "Lerouville",
    "country": "FR",
    "stopIds": [
      "TGVMAX:lerouville_centre"
    ],
    "operators": [
      "TGVMAX"
    ],
    "lat": 48.797218,
    "lon": 5.538705
  },
  {
    "id": "FR:les-arcs-draguignan",
    "name": "Les Arcs Draguignan",
    "city": "Les Arcs Draguignan",
    "country": "FR",
    "stopIds": [
      "FRLAC"
    ],
    "operators": [
      "TGVMAX"
    ],
    "lat": 43.455524,
    "lon": 6.482498
  },
  {
    "id": "FR:les-aubrais",
    "name": "Les Aubrais",
    "city": "Les Aubrais",
    "country": "FR",
    "stopIds": [
      "FRLAB"
    ],
    "operators": [
      "TGVMAX"
    ],
    "lat": 47.926801,
    "lon": 1.906629
  },
  {
    "id": "FR:les-sables-d-olonne",
    "name": "Les Sables D Olonne",
    "city": "Les Sables D Olonne",
    "country": "FR",
    "stopIds": [
      "FRLSO"
    ],
    "operators": [
      "TGVMAX"
    ],
    "lat": 46.499917,
    "lon": -1.78105
  },
  {
    "id": "FR:libourne",
    "name": "Libourne",
    "city": "Libourne",
    "country": "FR",
    "stopIds": [
      "FRLIB"
    ],
    "operators": [
      "TGVMAX"
    ],
    "lat": 44.915888,
    "lon": -0.236344
  },
  {
    "id": "FR:lille",
    "name": "Lille",
    "city": "Lille",
    "country": "FR",
    "stopIds": [
      "FRLLF"
    ],
    "operators": [
      "TGVMAX"
    ],
    "lat": 50.630402,
    "lon": 3.070931
  },
  {
    "id": "FR:limoges",
    "name": "Limoges",
    "city": "Limoges",
    "country": "FR",
    "stopIds": [
      "FRLIM"
    ],
    "operators": [
      "TGVMAX"
    ],
    "lat": 45.835722,
    "lon": 1.265166
  },
  {
    "id": "FR:lorient",
    "name": "Lorient",
    "city": "Lorient",
    "country": "FR",
    "stopIds": [
      "FRLRT"
    ],
    "operators": [
      "TGVMAX"
    ],
    "lat": 47.755597,
    "lon": -3.366221
  },
  {
    "id": "FR:lorraine",
    "name": "Lorraine",
    "city": "Lorraine",
    "country": "FR",
    "stopIds": [
      "FRTGL"
    ],
    "operators": [
      "TGVMAX"
    ],
    "lat": 48.947773,
    "lon": 6.169838
  },
  {
    "id": "FR:lourdes",
    "name": "Lourdes",
    "city": "Lourdes",
    "country": "FR",
    "stopIds": [
      "FRLDS"
    ],
    "operators": [
      "TGVMAX"
    ],
    "lat": 43.10037,
    "lon": -0.042174
  },
  {
    "id": "FR:luc-en-diois",
    "name": "Luc en Diois",
    "city": "Luc en Diois",
    "country": "FR",
    "stopIds": [
      "FRLDE"
    ],
    "operators": [
      "TGVMAX"
    ],
    "lat": 44.613662,
    "lon": 5.454623
  },
  {
    "id": "FR:lucon",
    "name": "Lucon",
    "city": "Lucon",
    "country": "FR",
    "stopIds": [
      "FRLRK"
    ],
    "operators": [
      "TGVMAX"
    ],
    "lat": 46.463823,
    "lon": -1.167422
  },
  {
    "id": "FR:luneville",
    "name": "Luneville",
    "city": "Luneville",
    "country": "FR",
    "stopIds": [
      "FRLNE"
    ],
    "operators": [
      "TGVMAX"
    ],
    "lat": 48.588233,
    "lon": 6.49727
  },
  {
    "id": "FR:luxembourg",
    "name": "Luxembourg",
    "city": "Luxembourg",
    "country": "FR",
    "stopIds": [
      "TGVMAX:luxembourg"
    ],
    "operators": [
      "TGVMAX"
    ],
    "lat": 48.8493,
    "lon": 2.33
  },
  {
    "id": "FR:macon-loche",
    "name": "Macon Loche",
    "city": "Macon Loche",
    "country": "FR",
    "stopIds": [
      "FRMLH"
    ],
    "operators": [
      "TGVMAX"
    ],
    "lat": 46.282884,
    "lon": 4.778876
  },
  {
    "id": "FR:macon-ville",
    "name": "Macon Ville",
    "city": "Macon Ville",
    "country": "FR",
    "stopIds": [
      "FRMAC"
    ],
    "operators": [
      "TGVMAX"
    ],
    "lat": 46.302572,
    "lon": 4.824887
  },
  {
    "id": "FR:magalas",
    "name": "Magalas",
    "city": "Magalas",
    "country": "FR",
    "stopIds": [
      "FRMGA"
    ],
    "operators": [
      "TGVMAX"
    ],
    "lat": 43.4676,
    "lon": 3.229542
  },
  {
    "id": "FR:mannheim-hbf",
    "name": "Mannheim Hbf",
    "city": "Mannheim Hbf",
    "country": "FR",
    "stopIds": [
      "TGVMAX:mannheim_hbf"
    ],
    "operators": [
      "TGVMAX"
    ],
    "lat": 0,
    "lon": 0
  },
  {
    "id": "FR:mantes",
    "name": "Mantes",
    "city": "Mantes",
    "country": "FR",
    "stopIds": [
      "FRMTE"
    ],
    "operators": [
      "TGVMAX"
    ],
    "lat": 48.989448,
    "lon": 1.703123
  },
  {
    "id": "FR:marmande",
    "name": "Marmande",
    "city": "Marmande",
    "country": "FR",
    "stopIds": [
      "FRMMD"
    ],
    "operators": [
      "TGVMAX"
    ],
    "lat": 44.503019,
    "lon": 0.168044
  },
  {
    "id": "FR:marne-la-vallee-chessy",
    "name": "Marne la Vallee Chessy",
    "city": "Marne la Vallee Chessy",
    "country": "FR",
    "stopIds": [
      "FRMLV"
    ],
    "operators": [
      "TGVMAX"
    ],
    "lat": 48.869856,
    "lon": 2.78272
  },
  {
    "id": "FR:marvejols",
    "name": "Marvejols",
    "city": "Marvejols",
    "country": "FR",
    "stopIds": [
      "FRMVJ"
    ],
    "operators": [
      "TGVMAX"
    ],
    "lat": 44.544682,
    "lon": 3.281072
  },
  {
    "id": "FR:massiac-blesle",
    "name": "Massiac Blesle",
    "city": "Massiac Blesle",
    "country": "FR",
    "stopIds": [
      "FRMIA"
    ],
    "operators": [
      "TGVMAX"
    ],
    "lat": 45.25377,
    "lon": 3.196552
  },
  {
    "id": "FR:massy-palaiseau",
    "name": "Massy Palaiseau",
    "city": "Massy Palaiseau",
    "country": "FR",
    "stopIds": [
      "FRMPU"
    ],
    "operators": [
      "TGVMAX"
    ],
    "lat": 48.726421,
    "lon": 2.257528
  },
  {
    "id": "FR:massy-tgv",
    "name": "Massy Tgv",
    "city": "Massy Tgv",
    "country": "FR",
    "stopIds": [
      "FRMPW"
    ],
    "operators": [
      "TGVMAX"
    ],
    "lat": 48.725758,
    "lon": 2.261254
  },
  {
    "id": "FR:metz",
    "name": "Metz",
    "city": "Metz",
    "country": "FR",
    "stopIds": [
      "FRMZE"
    ],
    "operators": [
      "TGVMAX"
    ],
    "lat": 49.109545,
    "lon": 6.176593
  },
  {
    "id": "FR:meuse",
    "name": "Meuse",
    "city": "Meuse",
    "country": "FR",
    "stopIds": [
      "FRTGM"
    ],
    "operators": [
      "TGVMAX"
    ],
    "lat": 48.978549,
    "lon": 5.270954
  },
  {
    "id": "FR:milano-porta-garibaldi",
    "name": "Milano Porta Garibaldi",
    "city": "Milano Porta Garibaldi",
    "country": "FR",
    "stopIds": [
      "TGVMAX:milano_porta_garibaldi"
    ],
    "operators": [
      "TGVMAX"
    ],
    "lat": 0,
    "lon": 0
  },
  {
    "id": "FR:millau",
    "name": "Millau",
    "city": "Millau",
    "country": "FR",
    "stopIds": [
      "FRMAU"
    ],
    "operators": [
      "TGVMAX"
    ],
    "lat": 44.102344,
    "lon": 3.07457
  },
  {
    "id": "FR:miramas",
    "name": "Miramas",
    "city": "Miramas",
    "country": "FR",
    "stopIds": [
      "FRMAS"
    ],
    "operators": [
      "TGVMAX"
    ],
    "lat": 43.580704,
    "lon": 5.000264
  },
  {
    "id": "FR:modane",
    "name": "Modane",
    "city": "Modane",
    "country": "FR",
    "stopIds": [
      "FRMOD"
    ],
    "operators": [
      "TGVMAX"
    ],
    "lat": 45.193365,
    "lon": 6.658161
  },
  {
    "id": "FR:montauban",
    "name": "Montauban",
    "city": "Montauban",
    "country": "FR",
    "stopIds": [
      "FRMBN"
    ],
    "operators": [
      "TGVMAX"
    ],
    "lat": 44.01667,
    "lon": 1.35
  },
  {
    "id": "FR:montbard",
    "name": "Montbard",
    "city": "Montbard",
    "country": "FR",
    "stopIds": [
      "FRMBA"
    ],
    "operators": [
      "TGVMAX"
    ],
    "lat": 47.618747,
    "lon": 4.33616
  },
  {
    "id": "FR:montdauphin-guillestre",
    "name": "Montdauphin Guillestre",
    "city": "Montdauphin Guillestre",
    "country": "FR",
    "stopIds": [
      "FRMOG"
    ],
    "operators": [
      "TGVMAX"
    ],
    "lat": 44.674628,
    "lon": 6.615603
  },
  {
    "id": "FR:montelimar",
    "name": "Montelimar",
    "city": "Montelimar",
    "country": "FR",
    "stopIds": [
      "FRMTR"
    ],
    "operators": [
      "TGVMAX"
    ],
    "lat": 44.566667,
    "lon": 4.75
  },
  {
    "id": "FR:montrejeau-gourdan-polignan",
    "name": "Montrejeau Gourdan Polignan",
    "city": "Montrejeau Gourdan Polignan",
    "country": "FR",
    "stopIds": [
      "FRMTJ"
    ],
    "operators": [
      "TGVMAX"
    ],
    "lat": 43.078109,
    "lon": 0.5735
  },
  {
    "id": "FR:morlaix",
    "name": "Morlaix",
    "city": "Morlaix",
    "country": "FR",
    "stopIds": [
      "FRMXR"
    ],
    "operators": [
      "TGVMAX"
    ],
    "lat": 48.57797,
    "lon": -3.832514
  },
  {
    "id": "FR:mouchard",
    "name": "Mouchard",
    "city": "Mouchard",
    "country": "FR",
    "stopIds": [
      "FRMCD"
    ],
    "operators": [
      "TGVMAX"
    ],
    "lat": 46.976911,
    "lon": 5.799644
  },
  {
    "id": "FR:moulins-sur-allier",
    "name": "Moulins sur Allier",
    "city": "Moulins sur Allier",
    "country": "FR",
    "stopIds": [
      "FRMSA"
    ],
    "operators": [
      "TGVMAX"
    ],
    "lat": 46.561346,
    "lon": 3.338842
  },
  {
    "id": "FR:moutiers-salins",
    "name": "Moutiers Salins",
    "city": "Moutiers Salins",
    "country": "FR",
    "stopIds": [
      "FRMOS"
    ],
    "operators": [
      "TGVMAX"
    ],
    "lat": 45.486344,
    "lon": 6.531425
  },
  {
    "id": "FR:mulhouse",
    "name": "Mulhouse",
    "city": "Mulhouse",
    "country": "FR",
    "stopIds": [
      "FRMSE"
    ],
    "operators": [
      "TGVMAX"
    ],
    "lat": 47.742224,
    "lon": 7.342396
  },
  {
    "id": "FR:munchen-hbf",
    "name": "Munchen Hbf",
    "city": "Munchen Hbf",
    "country": "FR",
    "stopIds": [
      "TGVMAX:munchen_hbf"
    ],
    "operators": [
      "TGVMAX"
    ],
    "lat": 0,
    "lon": 0
  },
  {
    "id": "FR:nancy",
    "name": "Nancy",
    "city": "Nancy",
    "country": "FR",
    "stopIds": [
      "FRNCY"
    ],
    "operators": [
      "TGVMAX"
    ],
    "lat": 48.689861,
    "lon": 6.174583
  },
  {
    "id": "FR:nantes",
    "name": "Nantes",
    "city": "Nantes",
    "country": "FR",
    "stopIds": [
      "FRNTS"
    ],
    "operators": [
      "TGVMAX"
    ],
    "lat": 47.216148,
    "lon": -1.542356
  },
  {
    "id": "FR:narbonne",
    "name": "Narbonne",
    "city": "Narbonne",
    "country": "FR",
    "stopIds": [
      "FRNBN"
    ],
    "operators": [
      "TGVMAX"
    ],
    "lat": 43.190387,
    "lon": 3.00591
  },
  {
    "id": "FR:naucelle",
    "name": "Naucelle",
    "city": "Naucelle",
    "country": "FR",
    "stopIds": [
      "FRNCE"
    ],
    "operators": [
      "TGVMAX"
    ],
    "lat": 44.185479,
    "lon": 2.363504
  },
  {
    "id": "FR:neufchateau",
    "name": "Neufchateau",
    "city": "Neufchateau",
    "country": "FR",
    "stopIds": [
      "FRNCH"
    ],
    "operators": [
      "TGVMAX"
    ],
    "lat": 48.358343,
    "lon": 5.690402
  },
  {
    "id": "FR:neussargues",
    "name": "Neussargues",
    "city": "Neussargues",
    "country": "FR",
    "stopIds": [
      "FRNEU"
    ],
    "operators": [
      "TGVMAX"
    ],
    "lat": 45.125304,
    "lon": 2.979187
  },
  {
    "id": "FR:nevers",
    "name": "Nevers",
    "city": "Nevers",
    "country": "FR",
    "stopIds": [
      "FRNVS"
    ],
    "operators": [
      "TGVMAX"
    ],
    "lat": 46.989562,
    "lon": 3.158998
  },
  {
    "id": "FR:nice",
    "name": "Nice",
    "city": "Nice",
    "country": "FR",
    "stopIds": [
      "FRNIC"
    ],
    "operators": [
      "TGVMAX"
    ],
    "lat": 43.696645,
    "lon": 7.271941
  },
  {
    "id": "FR:niort",
    "name": "Niort",
    "city": "Niort",
    "country": "FR",
    "stopIds": [
      "FRNRT"
    ],
    "operators": [
      "TGVMAX"
    ],
    "lat": 46.319491,
    "lon": -0.454639
  },
  {
    "id": "FR:nurieux",
    "name": "Nurieux",
    "city": "Nurieux",
    "country": "FR",
    "stopIds": [
      "FRNEX"
    ],
    "operators": [
      "TGVMAX"
    ],
    "lat": 46.18422,
    "lon": 5.532749
  },
  {
    "id": "FR:offenburg",
    "name": "Offenburg",
    "city": "Offenburg",
    "country": "FR",
    "stopIds": [
      "TGVMAX:offenburg"
    ],
    "operators": [
      "TGVMAX"
    ],
    "lat": 0,
    "lon": 0
  },
  {
    "id": "FR:orange",
    "name": "Orange",
    "city": "Orange",
    "country": "FR",
    "stopIds": [
      "FROGE"
    ],
    "operators": [
      "TGVMAX"
    ],
    "lat": 44.137304,
    "lon": 4.819594
  },
  {
    "id": "FR:orthez",
    "name": "Orthez",
    "city": "Orthez",
    "country": "FR",
    "stopIds": [
      "FRORT"
    ],
    "operators": [
      "TGVMAX"
    ],
    "lat": 43.484242,
    "lon": -0.76776
  },
  {
    "id": "FR:oux-cesana-clav-sestriere",
    "name": "Oux Cesana Clav Sestriere",
    "city": "Oux Cesana Clav Sestriere",
    "country": "FR",
    "stopIds": [
      "TGVMAX:oux_cesana_clav_sestriere"
    ],
    "operators": [
      "TGVMAX"
    ],
    "lat": 0,
    "lon": 0
  },
  {
    "id": "FR:paris",
    "name": "Paris",
    "city": "Paris",
    "country": "FR",
    "stopIds": [
      "FRPBY"
    ],
    "operators": [
      "TGVMAX"
    ],
    "lat": 48.85341,
    "lon": 2.3488
  },
  {
    "id": "FR:pau",
    "name": "Pau",
    "city": "Pau",
    "country": "FR",
    "stopIds": [
      "FRPAU"
    ],
    "operators": [
      "TGVMAX"
    ],
    "lat": 43.291762,
    "lon": -0.369626
  },
  {
    "id": "FR:perpignan",
    "name": "Perpignan",
    "city": "Perpignan",
    "country": "FR",
    "stopIds": [
      "FRPPN"
    ],
    "operators": [
      "TGVMAX"
    ],
    "lat": 42.696292,
    "lon": 2.879779
  },
  {
    "id": "FR:pierrefitte-sur-aire",
    "name": "Pierrefitte sur Aire",
    "city": "Pierrefitte sur Aire",
    "country": "FR",
    "stopIds": [
      "TGVMAX:pierrefitte_sur_aire"
    ],
    "operators": [
      "TGVMAX"
    ],
    "lat": 48.898271,
    "lon": 5.330324
  },
  {
    "id": "FR:plouaret-tregor",
    "name": "Plouaret Tregor",
    "city": "Plouaret Tregor",
    "country": "FR",
    "stopIds": [
      "FRPLT"
    ],
    "operators": [
      "TGVMAX"
    ],
    "lat": 48.606282,
    "lon": -3.466823
  },
  {
    "id": "FR:poitiers",
    "name": "Poitiers",
    "city": "Poitiers",
    "country": "FR",
    "stopIds": [
      "FRPST"
    ],
    "operators": [
      "TGVMAX"
    ],
    "lat": 46.582275,
    "lon": 0.333241
  },
  {
    "id": "FR:pont-de-rungis-aeroport-d-orly",
    "name": "Pont de Rungis Aeroport D Orly",
    "city": "Pont de Rungis Aeroport D Orly",
    "country": "FR",
    "stopIds": [
      "FRPRU"
    ],
    "operators": [
      "TGVMAX"
    ],
    "lat": 48.748163,
    "lon": 2.372792
  },
  {
    "id": "FR:pornichet",
    "name": "Pornichet",
    "city": "Pornichet",
    "country": "FR",
    "stopIds": [
      "FRPNI"
    ],
    "operators": [
      "TGVMAX"
    ],
    "lat": 47.270535,
    "lon": -2.344577
  },
  {
    "id": "FR:port-vendres",
    "name": "Port Vendres",
    "city": "Port Vendres",
    "country": "FR",
    "stopIds": [
      "FRPOV"
    ],
    "operators": [
      "TGVMAX"
    ],
    "lat": 42.513608,
    "lon": 3.102576
  },
  {
    "id": "FR:quimper",
    "name": "Quimper",
    "city": "Quimper",
    "country": "FR",
    "stopIds": [
      "FRQPR"
    ],
    "operators": [
      "TGVMAX"
    ],
    "lat": 47.994455,
    "lon": -4.092103
  },
  {
    "id": "FR:quimperle",
    "name": "Quimperle",
    "city": "Quimperle",
    "country": "FR",
    "stopIds": [
      "FRQPL"
    ],
    "operators": [
      "TGVMAX"
    ],
    "lat": 47.869375,
    "lon": -3.552693
  },
  {
    "id": "FR:rang-du-fliers-verton",
    "name": "Rang du Fliers Verton",
    "city": "Rang du Fliers Verton",
    "country": "FR",
    "stopIds": [
      "FRRDF"
    ],
    "operators": [
      "TGVMAX"
    ],
    "lat": 50.41579,
    "lon": 1.64805
  },
  {
    "id": "FR:redon",
    "name": "Redon",
    "city": "Redon",
    "country": "FR",
    "stopIds": [
      "FRRDN"
    ],
    "operators": [
      "TGVMAX"
    ],
    "lat": 47.652004,
    "lon": -2.08777
  },
  {
    "id": "FR:reims",
    "name": "Reims",
    "city": "Reims",
    "country": "FR",
    "stopIds": [
      "FRRSN"
    ],
    "operators": [
      "TGVMAX"
    ],
    "lat": 49.25,
    "lon": 4.033333
  },
  {
    "id": "FR:remiremont",
    "name": "Remiremont",
    "city": "Remiremont",
    "country": "FR",
    "stopIds": [
      "FRRMT"
    ],
    "operators": [
      "TGVMAX"
    ],
    "lat": 48.016363,
    "lon": 6.598855
  },
  {
    "id": "FR:rennes",
    "name": "Rennes",
    "city": "Rennes",
    "country": "FR",
    "stopIds": [
      "FRRES"
    ],
    "operators": [
      "TGVMAX"
    ],
    "lat": 48.083333,
    "lon": -1.683333
  },
  {
    "id": "FR:rethel",
    "name": "Rethel",
    "city": "Rethel",
    "country": "FR",
    "stopIds": [
      "FRRTL"
    ],
    "operators": [
      "TGVMAX"
    ],
    "lat": 49.504393,
    "lon": 4.369566
  },
  {
    "id": "FR:ringsheim-europa-park",
    "name": "Ringsheim Europa Park",
    "city": "Ringsheim Europa Park",
    "country": "FR",
    "stopIds": [
      "TGVMAX:ringsheim_europa_park"
    ],
    "operators": [
      "TGVMAX"
    ],
    "lat": 0,
    "lon": 0
  },
  {
    "id": "FR:riom-chatel-guyon",
    "name": "Riom Chatel Guyon",
    "city": "Riom Chatel Guyon",
    "country": "FR",
    "stopIds": [
      "FRRIO"
    ],
    "operators": [
      "TGVMAX"
    ],
    "lat": 45.889965,
    "lon": 3.120498
  },
  {
    "id": "FR:roanne",
    "name": "Roanne",
    "city": "Roanne",
    "country": "FR",
    "stopIds": [
      "FRROA"
    ],
    "operators": [
      "TGVMAX"
    ],
    "lat": 46.039383,
    "lon": 4.063207
  },
  {
    "id": "FR:rocamadour-padirac",
    "name": "Rocamadour Padirac",
    "city": "Rocamadour Padirac",
    "country": "FR",
    "stopIds": [
      "FRRAP"
    ],
    "operators": [
      "TGVMAX"
    ],
    "lat": 44.818356,
    "lon": 1.657349
  },
  {
    "id": "FR:rochefort",
    "name": "Rochefort",
    "city": "Rochefort",
    "country": "FR",
    "stopIds": [
      "FRRCT"
    ],
    "operators": [
      "TGVMAX"
    ],
    "lat": 45.947189,
    "lon": -0.963556
  },
  {
    "id": "FR:rodez",
    "name": "Rodez",
    "city": "Rodez",
    "country": "FR",
    "stopIds": [
      "FRRDZ"
    ],
    "operators": [
      "TGVMAX"
    ],
    "lat": 44.362633,
    "lon": 2.58056
  },
  {
    "id": "FR:rosporden",
    "name": "Rosporden",
    "city": "Rosporden",
    "country": "FR",
    "stopIds": [
      "FRRSP"
    ],
    "operators": [
      "TGVMAX"
    ],
    "lat": 47.960273,
    "lon": -3.832763
  },
  {
    "id": "FR:roubaix",
    "name": "Roubaix",
    "city": "Roubaix",
    "country": "FR",
    "stopIds": [
      "FRRXB"
    ],
    "operators": [
      "TGVMAX"
    ],
    "lat": 50.69561,
    "lon": 3.16348
  },
  {
    "id": "FR:rouen",
    "name": "Rouen",
    "city": "Rouen",
    "country": "FR",
    "stopIds": [
      "FRRRD"
    ],
    "operators": [
      "TGVMAX"
    ],
    "lat": 49.443129,
    "lon": 1.099319
  },
  {
    "id": "FR:saarbruecken-sarrebruck",
    "name": "Saarbruecken Sarrebruck",
    "city": "Saarbruecken Sarrebruck",
    "country": "FR",
    "stopIds": [
      "TGVMAX:saarbruecken_sarrebruck"
    ],
    "operators": [
      "TGVMAX"
    ],
    "lat": 0,
    "lon": 0
  },
  {
    "id": "FR:sable-sur-sarthe",
    "name": "Sable sur Sarthe",
    "city": "Sable sur Sarthe",
    "country": "FR",
    "stopIds": [
      "FRSAB"
    ],
    "operators": [
      "TGVMAX"
    ],
    "lat": 47.841593,
    "lon": -0.341936
  },
  {
    "id": "FR:saint-die-des-vosges",
    "name": "Saint Die des Vosges",
    "city": "Saint Die des Vosges",
    "country": "FR",
    "stopIds": [
      "FRSTD"
    ],
    "operators": [
      "TGVMAX"
    ],
    "lat": 48.282225,
    "lon": 6.948656
  },
  {
    "id": "FR:saint-mihiel",
    "name": "Saint Mihiel",
    "city": "Saint Mihiel",
    "country": "FR",
    "stopIds": [
      "TGVMAX:saint_mihiel"
    ],
    "operators": [
      "TGVMAX"
    ],
    "lat": 48.892499,
    "lon": 5.540762
  },
  {
    "id": "FR:saint-mihiel-detention",
    "name": "Saint Mihiel Detention",
    "city": "Saint Mihiel Detention",
    "country": "FR",
    "stopIds": [
      "TGVMAX:saint_mihiel_detention"
    ],
    "operators": [
      "TGVMAX"
    ],
    "lat": 48.892499,
    "lon": 5.540762
  },
  {
    "id": "FR:saintes",
    "name": "Saintes",
    "city": "Saintes",
    "country": "FR",
    "stopIds": [
      "FRSKW"
    ],
    "operators": [
      "TGVMAX"
    ],
    "lat": 45.74874,
    "lon": -0.6179
  },
  {
    "id": "FR:sampigny",
    "name": "Sampigny",
    "city": "Sampigny",
    "country": "FR",
    "stopIds": [
      "TGVMAX:sampigny_centre"
    ],
    "operators": [
      "TGVMAX"
    ],
    "lat": 0,
    "lon": 0
  },
  {
    "id": "FR:sarrebourg",
    "name": "Sarrebourg",
    "city": "Sarrebourg",
    "country": "FR",
    "stopIds": [
      "FRSBG"
    ],
    "operators": [
      "TGVMAX"
    ],
    "lat": 48.73808,
    "lon": 7.05285
  },
  {
    "id": "FR:saumur",
    "name": "Saumur",
    "city": "Saumur",
    "country": "FR",
    "stopIds": [
      "FRSUD"
    ],
    "operators": [
      "TGVMAX"
    ],
    "lat": 47.269,
    "lon": -0.07136
  },
  {
    "id": "FR:saverne",
    "name": "Saverne",
    "city": "Saverne",
    "country": "FR",
    "stopIds": [
      "FRSNE"
    ],
    "operators": [
      "TGVMAX"
    ],
    "lat": 48.744461,
    "lon": 7.36208
  },
  {
    "id": "FR:sedan",
    "name": "Sedan",
    "city": "Sedan",
    "country": "FR",
    "stopIds": [
      "FRSED"
    ],
    "operators": [
      "TGVMAX"
    ],
    "lat": 49.7,
    "lon": 4.95
  },
  {
    "id": "FR:selestat",
    "name": "Selestat",
    "city": "Selestat",
    "country": "FR",
    "stopIds": [
      "FRSTT"
    ],
    "operators": [
      "TGVMAX"
    ],
    "lat": 48.260117,
    "lon": 7.443278
  },
  {
    "id": "FR:sete",
    "name": "Sete",
    "city": "Sete",
    "country": "FR",
    "stopIds": [
      "FRSTE"
    ],
    "operators": [
      "TGVMAX"
    ],
    "lat": 43.412485,
    "lon": 3.69656
  },
  {
    "id": "FR:severac-le-chateau",
    "name": "Severac le Chateau",
    "city": "Severac le Chateau",
    "country": "FR",
    "stopIds": [
      "FRSVC"
    ],
    "operators": [
      "TGVMAX"
    ],
    "lat": 44.324652,
    "lon": 3.056945
  },
  {
    "id": "FR:souillac",
    "name": "Souillac",
    "city": "Souillac",
    "country": "FR",
    "stopIds": [
      "FRSOU"
    ],
    "operators": [
      "TGVMAX"
    ],
    "lat": 44.902127,
    "lon": 1.466605
  },
  {
    "id": "FR:souilly",
    "name": "Souilly",
    "city": "Souilly",
    "country": "FR",
    "stopIds": [
      "TGVMAX:souilly"
    ],
    "operators": [
      "TGVMAX"
    ],
    "lat": 0,
    "lon": 0
  },
  {
    "id": "FR:st-brieuc",
    "name": "St Brieuc",
    "city": "St Brieuc",
    "country": "FR",
    "stopIds": [
      "FRSBC"
    ],
    "operators": [
      "TGVMAX"
    ],
    "lat": 48.50758,
    "lon": -2.765
  },
  {
    "id": "FR:st-chely-d-apcher",
    "name": "St Chely D Apcher",
    "city": "St Chely D Apcher",
    "country": "FR",
    "stopIds": [
      "FRSYH"
    ],
    "operators": [
      "TGVMAX"
    ],
    "lat": 44.801738,
    "lon": 3.27069
  },
  {
    "id": "FR:st-christophe",
    "name": "St Christophe",
    "city": "St Christophe",
    "country": "FR",
    "stopIds": [
      "FRSIH"
    ],
    "operators": [
      "TGVMAX"
    ],
    "lat": 44.464619,
    "lon": 2.407759
  },
  {
    "id": "FR:st-denis-pres-martel",
    "name": "St Denis Pres Martel",
    "city": "St Denis Pres Martel",
    "country": "FR",
    "stopIds": [
      "FRSDM"
    ],
    "operators": [
      "TGVMAX"
    ],
    "lat": 44.945932,
    "lon": 1.666338
  },
  {
    "id": "FR:st-etienne-chateaucreux",
    "name": "St Etienne Chateaucreux",
    "city": "St Etienne Chateaucreux",
    "country": "FR",
    "stopIds": [
      "FRSEN"
    ],
    "operators": [
      "TGVMAX"
    ],
    "lat": 45.443366,
    "lon": 4.399722
  },
  {
    "id": "FR:st-flour-chaudes-aigues",
    "name": "St Flour Chaudes Aigues",
    "city": "St Flour Chaudes Aigues",
    "country": "FR",
    "stopIds": [
      "FRSFC"
    ],
    "operators": [
      "TGVMAX"
    ],
    "lat": 45.035012,
    "lon": 3.106286
  },
  {
    "id": "FR:st-gaudens",
    "name": "St Gaudens",
    "city": "St Gaudens",
    "country": "FR",
    "stopIds": [
      "FRSGD"
    ],
    "operators": [
      "TGVMAX"
    ],
    "lat": 43.105034,
    "lon": 0.729104
  },
  {
    "id": "FR:st-georges-de-luzencon",
    "name": "St Georges de Luzencon",
    "city": "St Georges de Luzencon",
    "country": "FR",
    "stopIds": [
      "FRSDU"
    ],
    "operators": [
      "TGVMAX"
    ],
    "lat": 44.066553,
    "lon": 2.983784
  },
  {
    "id": "FR:st-germain-des-fosses",
    "name": "St Germain des Fosses",
    "city": "St Germain des Fosses",
    "country": "FR",
    "stopIds": [
      "FRSGF"
    ],
    "operators": [
      "TGVMAX"
    ],
    "lat": 46.209185,
    "lon": 3.430614
  },
  {
    "id": "FR:st-jean-de-luz-ciboure",
    "name": "St Jean de Luz Ciboure",
    "city": "St Jean de Luz Ciboure",
    "country": "FR",
    "stopIds": [
      "FRSJZ"
    ],
    "operators": [
      "TGVMAX"
    ],
    "lat": 43.385838,
    "lon": -1.66122
  },
  {
    "id": "FR:st-jean-de-maurienne-arvan",
    "name": "St Jean de Maurienne Arvan",
    "city": "St Jean de Maurienne Arvan",
    "country": "FR",
    "stopIds": [
      "FRSJM"
    ],
    "operators": [
      "TGVMAX"
    ],
    "lat": 45.277542,
    "lon": 6.354716
  },
  {
    "id": "FR:st-maixent",
    "name": "St Maixent",
    "city": "St Maixent",
    "country": "FR",
    "stopIds": [
      "FRSMX"
    ],
    "operators": [
      "TGVMAX"
    ],
    "lat": 46.406607,
    "lon": -0.201073
  },
  {
    "id": "FR:st-malo",
    "name": "St Malo",
    "city": "St Malo",
    "country": "FR",
    "stopIds": [
      "FRSMP"
    ],
    "operators": [
      "TGVMAX"
    ],
    "lat": 48.646859,
    "lon": -2.004158
  },
  {
    "id": "FR:st-nazaire",
    "name": "St Nazaire",
    "city": "St Nazaire",
    "country": "FR",
    "stopIds": [
      "FRSNA"
    ],
    "operators": [
      "TGVMAX"
    ],
    "lat": 47.286412,
    "lon": -2.211096
  },
  {
    "id": "FR:st-pierre-des-corps",
    "name": "St Pierre des Corps",
    "city": "St Pierre des Corps",
    "country": "FR",
    "stopIds": [
      "FRSPC"
    ],
    "operators": [
      "TGVMAX"
    ],
    "lat": 47.386099,
    "lon": 0.72355
  },
  {
    "id": "FR:st-quentin",
    "name": "St Quentin",
    "city": "St Quentin",
    "country": "FR",
    "stopIds": [
      "FRSQT"
    ],
    "operators": [
      "TGVMAX"
    ],
    "lat": 49.840048,
    "lon": 3.297009
  },
  {
    "id": "FR:st-raphael-valescure",
    "name": "St Raphael Valescure",
    "city": "St Raphael Valescure",
    "country": "FR",
    "stopIds": [
      "FRSRV"
    ],
    "operators": [
      "TGVMAX"
    ],
    "lat": 43.42356,
    "lon": 6.769083
  },
  {
    "id": "FR:st-rome-de-cernon",
    "name": "St Rome de Cernon",
    "city": "St Rome de Cernon",
    "country": "FR",
    "stopIds": [
      "FRSDO"
    ],
    "operators": [
      "TGVMAX"
    ],
    "lat": 44.013981,
    "lon": 2.967374
  },
  {
    "id": "FR:st-vincent-de-tyrosse",
    "name": "St Vincent de Tyrosse",
    "city": "St Vincent de Tyrosse",
    "country": "FR",
    "stopIds": [
      "FRSVT"
    ],
    "operators": [
      "TGVMAX"
    ],
    "lat": 43.657736,
    "lon": -1.306493
  },
  {
    "id": "FR:strasbourg",
    "name": "Strasbourg",
    "city": "Strasbourg",
    "country": "FR",
    "stopIds": [
      "FRSTG"
    ],
    "operators": [
      "TGVMAX"
    ],
    "lat": 48.584967,
    "lon": 7.734584
  },
  {
    "id": "FR:stuttgart-hbf",
    "name": "Stuttgart Hbf",
    "city": "Stuttgart Hbf",
    "country": "FR",
    "stopIds": [
      "TGVMAX:stuttgart_hbf"
    ],
    "operators": [
      "TGVMAX"
    ],
    "lat": 0,
    "lon": 0
  },
  {
    "id": "FR:surgeres",
    "name": "Surgeres",
    "city": "Surgeres",
    "country": "FR",
    "stopIds": [
      "FRSGE"
    ],
    "operators": [
      "TGVMAX"
    ],
    "lat": 46.113238,
    "lon": -0.762284
  },
  {
    "id": "FR:tarbes",
    "name": "Tarbes",
    "city": "Tarbes",
    "country": "FR",
    "stopIds": [
      "FRTBS"
    ],
    "operators": [
      "TGVMAX"
    ],
    "lat": 43.239955,
    "lon": 0.069415
  },
  {
    "id": "FR:tbd",
    "name": "Tbd",
    "city": "Tbd",
    "country": "FR",
    "stopIds": [
      "TGVMAX:tbd"
    ],
    "operators": [
      "TGVMAX"
    ],
    "lat": 0,
    "lon": 0
  },
  {
    "id": "FR:tgv",
    "name": "Tgv",
    "city": "Tgv",
    "country": "FR",
    "stopIds": [
      "TGVMAX:tgv_haute_picardie"
    ],
    "operators": [
      "TGVMAX"
    ],
    "lat": 0,
    "lon": 0
  },
  {
    "id": "FR:thionville",
    "name": "Thionville",
    "city": "Thionville",
    "country": "FR",
    "stopIds": [
      "FRTHL"
    ],
    "operators": [
      "TGVMAX"
    ],
    "lat": 49.353931,
    "lon": 6.169543
  },
  {
    "id": "FR:thonon-les-bains",
    "name": "Thonon les Bains",
    "city": "Thonon les Bains",
    "country": "FR",
    "stopIds": [
      "FRTHO"
    ],
    "operators": [
      "TGVMAX"
    ],
    "lat": 46.369004,
    "lon": 6.481669
  },
  {
    "id": "FR:torino-porta-nuova",
    "name": "Torino Porta Nuova",
    "city": "Torino Porta Nuova",
    "country": "FR",
    "stopIds": [
      "TGVMAX:torino_porta_nuova"
    ],
    "operators": [
      "TGVMAX"
    ],
    "lat": 0,
    "lon": 0
  },
  {
    "id": "FR:torino-porta-susa",
    "name": "Torino Porta Susa",
    "city": "Torino Porta Susa",
    "country": "FR",
    "stopIds": [
      "TGVMAX:torino_porta_susa"
    ],
    "operators": [
      "TGVMAX"
    ],
    "lat": 0,
    "lon": 0
  },
  {
    "id": "FR:toul",
    "name": "Toul",
    "city": "Toul",
    "country": "FR",
    "stopIds": [
      "FRTOL"
    ],
    "operators": [
      "TGVMAX"
    ],
    "lat": 48.679018,
    "lon": 5.880615
  },
  {
    "id": "FR:toulon",
    "name": "Toulon",
    "city": "Toulon",
    "country": "FR",
    "stopIds": [
      "FRTLN"
    ],
    "operators": [
      "TGVMAX"
    ],
    "lat": 43.12837,
    "lon": 5.929293
  },
  {
    "id": "FR:toulouse",
    "name": "Toulouse",
    "city": "Toulouse",
    "country": "FR",
    "stopIds": [
      "FRTSE"
    ],
    "operators": [
      "TGVMAX"
    ],
    "lat": 43.604464,
    "lon": 1.444005
  },
  {
    "id": "FR:tourcoing",
    "name": "Tourcoing",
    "city": "Tourcoing",
    "country": "FR",
    "stopIds": [
      "FRTRG"
    ],
    "operators": [
      "TGVMAX"
    ],
    "lat": 50.71683,
    "lon": 3.16804
  },
  {
    "id": "FR:tournemire-roquefort",
    "name": "Tournemire Roquefort",
    "city": "Tournemire Roquefort",
    "country": "FR",
    "stopIds": [
      "FRTEO"
    ],
    "operators": [
      "TGVMAX"
    ],
    "lat": 43.9698,
    "lon": 3.016626
  },
  {
    "id": "FR:tours",
    "name": "Tours",
    "city": "Tours",
    "country": "FR",
    "stopIds": [
      "FRTRS"
    ],
    "operators": [
      "TGVMAX"
    ],
    "lat": 47.389781,
    "lon": 0.693703
  },
  {
    "id": "FR:ulm-hbf",
    "name": "Ulm Hbf",
    "city": "Ulm Hbf",
    "country": "FR",
    "stopIds": [
      "TGVMAX:ulm_hbf"
    ],
    "operators": [
      "TGVMAX"
    ],
    "lat": 0,
    "lon": 0
  },
  {
    "id": "FR:uzerche",
    "name": "Uzerche",
    "city": "Uzerche",
    "country": "FR",
    "stopIds": [
      "FRURE"
    ],
    "operators": [
      "TGVMAX"
    ],
    "lat": 45.440709,
    "lon": 1.570274
  },
  {
    "id": "FR:valence",
    "name": "Valence",
    "city": "Valence",
    "country": "FR",
    "stopIds": [
      "FRVAL"
    ],
    "operators": [
      "TGVMAX"
    ],
    "lat": 44.93324,
    "lon": 4.89236
  },
  {
    "id": "FR:valenciennes",
    "name": "Valenciennes",
    "city": "Valenciennes",
    "country": "FR",
    "stopIds": [
      "FRVSN"
    ],
    "operators": [
      "TGVMAX"
    ],
    "lat": 50.363259,
    "lon": 3.517115
  },
  {
    "id": "FR:vallorbe",
    "name": "Vallorbe",
    "city": "Vallorbe",
    "country": "FR",
    "stopIds": [
      "TGVMAX:vallorbe"
    ],
    "operators": [
      "TGVMAX"
    ],
    "lat": 0,
    "lon": 0
  },
  {
    "id": "FR:vannes",
    "name": "Vannes",
    "city": "Vannes",
    "country": "FR",
    "stopIds": [
      "FRVAN"
    ],
    "operators": [
      "TGVMAX"
    ],
    "lat": 47.665169,
    "lon": -2.75245
  },
  {
    "id": "FR:vendome",
    "name": "Vendome",
    "city": "Vendome",
    "country": "FR",
    "stopIds": [
      "FRVDM"
    ],
    "operators": [
      "TGVMAX"
    ],
    "lat": 47.80215,
    "lon": 1.067873
  },
  {
    "id": "FR:verdun",
    "name": "Verdun",
    "city": "Verdun",
    "country": "FR",
    "stopIds": [
      "FRVDN"
    ],
    "operators": [
      "TGVMAX"
    ],
    "lat": 49.165406,
    "lon": 5.379701
  },
  {
    "id": "FR:versailles",
    "name": "Versailles",
    "city": "Versailles",
    "country": "FR",
    "stopIds": [
      "FRVCR"
    ],
    "operators": [
      "TGVMAX"
    ],
    "lat": 48.7526,
    "lon": 2.5735
  },
  {
    "id": "FR:veynes-devoluy",
    "name": "Veynes Devoluy",
    "city": "Veynes Devoluy",
    "country": "FR",
    "stopIds": [
      "FRVDY"
    ],
    "operators": [
      "TGVMAX"
    ],
    "lat": 44.532005,
    "lon": 5.815764
  },
  {
    "id": "FR:vichy",
    "name": "Vichy",
    "city": "Vichy",
    "country": "FR",
    "stopIds": [
      "FRVHY"
    ],
    "operators": [
      "TGVMAX"
    ],
    "lat": 46.126979,
    "lon": 3.430448
  },
  {
    "id": "FR:vierzon",
    "name": "Vierzon",
    "city": "Vierzon",
    "country": "FR",
    "stopIds": [
      "FRVER"
    ],
    "operators": [
      "TGVMAX"
    ],
    "lat": 47.226497,
    "lon": 2.059822
  },
  {
    "id": "FR:vitre",
    "name": "Vitre",
    "city": "Vitre",
    "country": "FR",
    "stopIds": [
      "FRVTE"
    ],
    "operators": [
      "TGVMAX"
    ],
    "lat": 48.122671,
    "lon": -1.211754
  },
  {
    "id": "FR:vitry-le-francois",
    "name": "Vitry le Francois",
    "city": "Vitry le Francois",
    "country": "FR",
    "stopIds": [
      "FRVYF"
    ],
    "operators": [
      "TGVMAX"
    ],
    "lat": 48.718142,
    "lon": 4.587581
  },
  {
    "id": "FR:viviez-decazeville",
    "name": "Viviez Decazeville",
    "city": "Viviez Decazeville",
    "country": "FR",
    "stopIds": [
      "FRVZI"
    ],
    "operators": [
      "TGVMAX"
    ],
    "lat": 44.555568,
    "lon": 2.218258
  },
  {
    "id": "FR:zurich-hb",
    "name": "Zurich Hb",
    "city": "Zurich Hb",
    "country": "FR",
    "stopIds": [
      "TGVMAX:zurich_hb"
    ],
    "operators": [
      "TGVMAX"
    ],
    "lat": 0,
    "lon": 0
  }
]